<?xml version="1.0" encoding="UTF-8"?>
<stationList xmlns:xsi="http://www.w3.org/2001/XMLSchema-instance"
        xsi:noNamespaceSchemaLocation="stns.xsd">
<!--This is station location data-->
     <station>
          <stid>AKZ187</stid>
          <stnnum>21870</stnnum>
          <stnname>Central_Aleutians</stnname>
          <state>AK</state>
          <country>US</country>
          <latitude>52.22</latitude>
          <longitude>-174.23</longitude>
          <elevation>0</elevation>
          <priority>0</priority>
          <wfo>AFC</wfo>
     </station>
     <station>
          <stid>AKZ213</stid>
          <stnnum>22130</stnnum>
          <stnname>St_Lawrence_I_and_Bering_St_Cst</stnname>
          <state>AK</state>
          <country>US</country>
          <latitude>63.36</latitude>
          <longitude>-170.27</longitude>
          <elevation>0</elevation>
          <priority>0</priority>
          <wfo>AFG</wfo>
     </station>
     <station>
          <stid>AKZ195</stid>
          <stnnum>21950</stnnum>
          <stnname>Pribilof_Islands</stnname>
          <state>AK</state>
          <country>US</country>
          <latitude>57.18</latitude>
          <longitude>-170.26</longitude>
          <elevation>0</elevation>
          <priority>0</priority>
          <wfo>AFC</wfo>
     </station>
     <station>
          <stid>AKZ185</stid>
          <stnnum>21850</stnnum>
          <stnname>Eastern_Aleutians</stnname>
          <state>AK</state>
          <country>US</country>
          <latitude>53.63</latitude>
          <longitude>-166.66</longitude>
          <elevation>0</elevation>
          <priority>0</priority>
          <wfo>AFC</wfo>
     </station>
     <station>
          <stid>AKZ207</stid>
          <stnnum>22070</stnnum>
          <stnname>Chukchi_Sea_Coast</stnname>
          <state>AK</state>
          <country>US</country>
          <latitude>67.98</latitude>
          <longitude>-165.11</longitude>
          <elevation>0</elevation>
          <priority>0</priority>
          <wfo>AFG</wfo>
     </station>
     <station>
          <stid>AKZ211</stid>
          <stnnum>22110</stnnum>
          <stnname>Southern_Seward_Peninsula_Coast</stnname>
          <state>AK</state>
          <country>US</country>
          <latitude>64.58</latitude>
          <longitude>-164.56</longitude>
          <elevation>0</elevation>
          <priority>0</priority>
          <wfo>AFG</wfo>
     </station>
     <station>
          <stid>AKZ214</stid>
          <stnnum>22140</stnnum>
          <stnname>Yukon_Delta</stnname>
          <state>AK</state>
          <country>US</country>
          <latitude>62.24</latitude>
          <longitude>-164.37</longitude>
          <elevation>0</elevation>
          <priority>0</priority>
          <wfo>AFG</wfo>
     </station>
     <station>
          <stid>AKZ155</stid>
          <stnnum>21550</stnnum>
          <stnname>Kuskokwim_Delta</stnname>
          <state>AK</state>
          <country>US</country>
          <latitude>60.18</latitude>
          <longitude>-163.61</longitude>
          <elevation>0</elevation>
          <priority>0</priority>
          <wfo>AFC</wfo>
     </station>
     <station>
          <stid>AKZ208</stid>
          <stnnum>22080</stnnum>
          <stnname>Lower_Kobuk_and_Noatak_Valleys</stnname>
          <state>AK</state>
          <country>US</country>
          <latitude>67.77</latitude>
          <longitude>-162.75</longitude>
          <elevation>0</elevation>
          <priority>0</priority>
          <wfo>AFG</wfo>
     </station>
     <station>
          <stid>AKZ210</stid>
          <stnnum>22100</stnnum>
          <stnname>Nrn_and_Interior_Seward_Penin</stnname>
          <state>AK</state>
          <country>US</country>
          <latitude>65.40</latitude>
          <longitude>-162.41</longitude>
          <elevation>0</elevation>
          <priority>0</priority>
          <wfo>AFG</wfo>
     </station>
     <station>
          <stid>AKZ201</stid>
          <stnnum>22010</stnnum>
          <stnname>Western_Arctic_Coast</stnname>
          <state>AK</state>
          <country>US</country>
          <latitude>69.84</latitude>
          <longitude>-161.53</longitude>
          <elevation>0</elevation>
          <priority>0</priority>
          <wfo>AFG</wfo>
     </station>
     <station>
          <stid>AKZ181</stid>
          <stnnum>21810</stnnum>
          <stnname>Alaska_Peninsula</stnname>
          <state>AK</state>
          <country>US</country>
          <latitude>55.82</latitude>
          <longitude>-161.44</longitude>
          <elevation>0</elevation>
          <priority>0</priority>
          <wfo>AFC</wfo>
     </station>
     <station>
          <stid>AKZ209</stid>
          <stnnum>22090</stnnum>
          <stnname>Baldwin_Penin_and_Selawik_Vly</stnname>
          <state>AK</state>
          <country>US</country>
          <latitude>66.69</latitude>
          <longitude>-161.06</longitude>
          <elevation>0</elevation>
          <priority>0</priority>
          <wfo>AFG</wfo>
     </station>
     <station>
          <stid>AKZ212</stid>
          <stnnum>22120</stnnum>
          <stnname>Ern_Norton_Snd_and_Nulato_Hills</stnname>
          <state>AK</state>
          <country>US</country>
          <latitude>63.74</latitude>
          <longitude>-160.39</longitude>
          <elevation>0</elevation>
          <priority>0</priority>
          <wfo>AFG</wfo>
     </station>
     <station>
          <stid>HIZ001</stid>
          <stnnum>110010</stnnum>
          <stnname>Niihau</stnname>
          <state>HI</state>
          <country>US</country>
          <latitude>21.89</latitude>
          <longitude>-160.15</longitude>
          <elevation>0</elevation>
          <priority>0</priority>
          <wfo>HFO</wfo>
     </station>
     <station>
          <stid>AKZ215</stid>
          <stnnum>22150</stnnum>
          <stnname>Lower_Yukon_Valley</stnname>
          <state>AK</state>
          <country>US</country>
          <latitude>62.56</latitude>
          <longitude>-159.94</longitude>
          <elevation>0</elevation>
          <priority>0</priority>
          <wfo>AFG</wfo>
     </station>
     <station>
          <stid>HIZ003</stid>
          <stnnum>110030</stnnum>
          <stnname>Kauai_Leeward</stnname>
          <state>HI</state>
          <country>US</country>
          <latitude>22.02</latitude>
          <longitude>-159.67</longitude>
          <elevation>0</elevation>
          <priority>0</priority>
          <wfo>HFO</wfo>
     </station>
     <station>
          <stid>HIZ004</stid>
          <stnnum>110040</stnnum>
          <stnname>Kauai_Mountains</stnname>
          <state>HI</state>
          <country>US</country>
          <latitude>22.07</latitude>
          <longitude>-159.54</longitude>
          <elevation>0</elevation>
          <priority>0</priority>
          <wfo>HFO</wfo>
     </station>
     <station>
          <stid>HIZ002</stid>
          <stnnum>110020</stnnum>
          <stnname>Kauai_Windward</stnname>
          <state>HI</state>
          <country>US</country>
          <latitude>22.05</latitude>
          <longitude>-159.40</longitude>
          <elevation>0</elevation>
          <priority>0</priority>
          <wfo>HFO</wfo>
     </station>
     <station>
          <stid>AKZ205</stid>
          <stnnum>22050</stnnum>
          <stnname>Northwestern_Brooks_Range</stnname>
          <state>AK</state>
          <country>US</country>
          <latitude>69.06</latitude>
          <longitude>-158.44</longitude>
          <elevation>0</elevation>
          <priority>0</priority>
          <wfo>AFG</wfo>
     </station>
     <station>
          <stid>HIZ006</stid>
          <stnnum>110060</stnnum>
          <stnname>Waianae_Coast</stnname>
          <state>HI</state>
          <country>US</country>
          <latitude>21.48</latitude>
          <longitude>-158.21</longitude>
          <elevation>0</elevation>
          <priority>0</priority>
          <wfo>HFO</wfo>
     </station>
     <station>
          <stid>HIZ011</stid>
          <stnnum>110110</stnnum>
          <stnname>Waianae_Mountains</stnname>
          <state>HI</state>
          <country>US</country>
          <latitude>21.46</latitude>
          <longitude>-158.10</longitude>
          <elevation>0</elevation>
          <priority>0</priority>
          <wfo>HFO</wfo>
     </station>
     <station>
          <stid>HIZ007</stid>
          <stnnum>110070</stnnum>
          <stnname>Oahu_North_Shore</stnname>
          <state>HI</state>
          <country>US</country>
          <latitude>21.59</latitude>
          <longitude>-158.08</longitude>
          <elevation>0</elevation>
          <priority>0</priority>
          <wfo>HFO</wfo>
     </station>
     <station>
          <stid>HIZ005</stid>
          <stnnum>110050</stnnum>
          <stnname>Oahu_South_Shore</stnname>
          <state>HI</state>
          <country>US</country>
          <latitude>21.33</latitude>
          <longitude>-158.05</longitude>
          <elevation>0</elevation>
          <priority>0</priority>
          <wfo>HFO</wfo>
     </station>
     <station>
          <stid>HIZ010</stid>
          <stnnum>110100</stnnum>
          <stnname>Central_Oahu</stnname>
          <state>HI</state>
          <country>US</country>
          <latitude>21.50</latitude>
          <longitude>-158.01</longitude>
          <elevation>0</elevation>
          <priority>0</priority>
          <wfo>HFO</wfo>
     </station>
     <station>
          <stid>HIZ008</stid>
          <stnnum>110080</stnnum>
          <stnname>Oahu_Koolau</stnname>
          <state>HI</state>
          <country>US</country>
          <latitude>21.50</latitude>
          <longitude>-157.89</longitude>
          <elevation>0</elevation>
          <priority>0</priority>
          <wfo>HFO</wfo>
     </station>
     <station>
          <stid>HIZ009</stid>
          <stnnum>110090</stnnum>
          <stnname>Olomana</stnname>
          <state>HI</state>
          <country>US</country>
          <latitude>21.39</latitude>
          <longitude>-157.73</longitude>
          <elevation>0</elevation>
          <priority>0</priority>
          <wfo>HFO</wfo>
     </station>
     <station>
          <stid>HIZ013</stid>
          <stnnum>110130</stnnum>
          <stnname>Molokai_Leeward</stnname>
          <state>HI</state>
          <country>US</country>
          <latitude>21.14</latitude>
          <longitude>-157.09</longitude>
          <elevation>0</elevation>
          <priority>0</priority>
          <wfo>HFO</wfo>
     </station>
     <station>
          <stid>AKZ217</stid>
          <stnnum>22170</stnnum>
          <stnname>Upper_Kobuk_and_Noatak_Valleys</stnname>
          <state>AK</state>
          <country>US</country>
          <latitude>67.41</latitude>
          <longitude>-156.95</longitude>
          <elevation>0</elevation>
          <priority>0</priority>
          <wfo>AFG</wfo>
     </station>
     <station>
          <stid>HIZ015</stid>
          <stnnum>110150</stnnum>
          <stnname>Lanai_Mauka</stnname>
          <state>HI</state>
          <country>US</country>
          <latitude>20.82</latitude>
          <longitude>-156.92</longitude>
          <elevation>0</elevation>
          <priority>0</priority>
          <wfo>HFO</wfo>
     </station>
     <station>
          <stid>HIZ012</stid>
          <stnnum>110120</stnnum>
          <stnname>Molokai_Windward</stnname>
          <state>HI</state>
          <country>US</country>
          <latitude>21.14</latitude>
          <longitude>-156.85</longitude>
          <elevation>0</elevation>
          <priority>0</priority>
          <wfo>HFO</wfo>
     </station>
     <station>
          <stid>HIZ014</stid>
          <stnnum>110140</stnnum>
          <stnname>Lanai_Makai</stnname>
          <state>HI</state>
          <country>US</country>
          <latitude>20.83</latitude>
          <longitude>-156.84</longitude>
          <elevation>0</elevation>
          <priority>0</priority>
          <wfo>HFO</wfo>
     </station>
     <station>
          <stid>HIZ018</stid>
          <stnnum>110180</stnnum>
          <stnname>Maui_Leeward_West</stnname>
          <state>HI</state>
          <country>US</country>
          <latitude>20.89</latitude>
          <longitude>-156.67</longitude>
          <elevation>0</elevation>
          <priority>0</priority>
          <wfo>HFO</wfo>
     </station>
     <station>
          <stid>HIZ016</stid>
          <stnnum>110160</stnnum>
          <stnname>Kahoolawe</stnname>
          <state>HI</state>
          <country>US</country>
          <latitude>20.56</latitude>
          <longitude>-156.62</longitude>
          <elevation>0</elevation>
          <priority>0</priority>
          <wfo>HFO</wfo>
     </station>
     <station>
          <stid>AKZ216</stid>
          <stnnum>22160</stnnum>
          <stnname>Lwr_Koyukuk_and_Middle_Yukon_Vly</stnname>
          <state>AK</state>
          <country>US</country>
          <latitude>64.44</latitude>
          <longitude>-156.58</longitude>
          <elevation>0</elevation>
          <priority>0</priority>
          <wfo>AFG</wfo>
     </station>
     <station>
          <stid>HIZ017</stid>
          <stnnum>110170</stnnum>
          <stnname>Maui_Windward_West</stnname>
          <state>HI</state>
          <country>US</country>
          <latitude>20.92</latitude>
          <longitude>-156.58</longitude>
          <elevation>0</elevation>
          <priority>0</priority>
          <wfo>HFO</wfo>
     </station>
     <station>
          <stid>HIZ019</stid>
          <stnnum>110190</stnnum>
          <stnname>Maui_Central_Valley</stnname>
          <state>HI</state>
          <country>US</country>
          <latitude>20.85</latitude>
          <longitude>-156.45</longitude>
          <elevation>0</elevation>
          <priority>0</priority>
          <wfo>HFO</wfo>
     </station>
     <station>
          <stid>HIZ021</stid>
          <stnnum>110210</stnnum>
          <stnname>Leeward_Haleakala</stnname>
          <state>HI</state>
          <country>US</country>
          <latitude>20.72</latitude>
          <longitude>-156.31</longitude>
          <elevation>0</elevation>
          <priority>0</priority>
          <wfo>HFO</wfo>
     </station>
     <station>
          <stid>HIZ022</stid>
          <stnnum>110220</stnnum>
          <stnname>Haleakala_Summit</stnname>
          <state>HI</state>
          <country>US</country>
          <latitude>20.72</latitude>
          <longitude>-156.23</longitude>
          <elevation>0</elevation>
          <priority>0</priority>
          <wfo>HFO</wfo>
     </station>
     <station>
          <stid>HIZ020</stid>
          <stnnum>110200</stnnum>
          <stnname>Windward_Haleakala</stnname>
          <state>HI</state>
          <country>US</country>
          <latitude>20.80</latitude>
          <longitude>-156.18</longitude>
          <elevation>0</elevation>
          <priority>0</priority>
          <wfo>HFO</wfo>
     </station>
     <station>
          <stid>AKZ151</stid>
          <stnnum>21510</stnnum>
          <stnname>Kuskokwim_Valley</stnname>
          <state>AK</state>
          <country>US</country>
          <latitude>62.26</latitude>
          <longitude>-156.04</longitude>
          <elevation>0</elevation>
          <priority>0</priority>
          <wfo>AFC</wfo>
     </station>
     <station>
          <stid>HIZ023</stid>
          <stnnum>110230</stnnum>
          <stnname>Kona</stnname>
          <state>HI</state>
          <country>US</country>
          <latitude>19.45</latitude>
          <longitude>-155.86</longitude>
          <elevation>0</elevation>
          <priority>0</priority>
          <wfo>HFO</wfo>
     </station>
     <station>
          <stid>HIZ026</stid>
          <stnnum>110260</stnnum>
          <stnname>Kohala</stnname>
          <state>HI</state>
          <country>US</country>
          <latitude>20.02</latitude>
          <longitude>-155.74</longitude>
          <elevation>0</elevation>
          <priority>0</priority>
          <wfo>HFO</wfo>
     </station>
     <station>
          <stid>AKZ161</stid>
          <stnnum>21610</stnnum>
          <stnname>Bristol_Bay</stnname>
          <state>AK</state>
          <country>US</country>
          <latitude>58.67</latitude>
          <longitude>-155.70</longitude>
          <elevation>0</elevation>
          <priority>0</priority>
          <wfo>AFC</wfo>
     </station>
     <station>
          <stid>HIZ027</stid>
          <stnnum>110270</stnnum>
          <stnname>Big_Island_Interior</stnname>
          <state>HI</state>
          <country>US</country>
          <latitude>19.56</latitude>
          <longitude>-155.61</longitude>
          <elevation>0</elevation>
          <priority>0</priority>
          <wfo>HFO</wfo>
     </station>
     <station>
          <stid>HIZ028</stid>
          <stnnum>110280</stnnum>
          <stnname>Big_Island_Summit</stnname>
          <state>HI</state>
          <country>US</country>
          <latitude>19.44</latitude>
          <longitude>-155.58</longitude>
          <elevation>0</elevation>
          <priority>0</priority>
          <wfo>HFO</wfo>
     </station>
     <station>
          <stid>HIZ024</stid>
          <stnnum>110240</stnnum>
          <stnname>South_Big_Island</stnname>
          <state>HI</state>
          <country>US</country>
          <latitude>19.19</latitude>
          <longitude>-155.42</longitude>
          <elevation>0</elevation>
          <priority>0</priority>
          <wfo>HFO</wfo>
     </station>
     <station>
          <stid>AKZ202</stid>
          <stnnum>22020</stnnum>
          <stnname>Northern_Arctic_Coast</stnname>
          <state>AK</state>
          <country>US</country>
          <latitude>70.78</latitude>
          <longitude>-155.25</longitude>
          <elevation>0</elevation>
          <priority>0</priority>
          <wfo>AFG</wfo>
     </station>
     <station>
          <stid>HIZ025</stid>
          <stnnum>110250</stnnum>
          <stnname>Big_Island_North_and_East</stnname>
          <state>HI</state>
          <country>US</country>
          <latitude>19.81</latitude>
          <longitude>-155.19</longitude>
          <elevation>0</elevation>
          <priority>0</priority>
          <wfo>HFO</wfo>
     </station>
     <station>
          <stid>AKZ171</stid>
          <stnnum>21710</stnnum>
          <stnname>Kodiak_Island</stnname>
          <state>AK</state>
          <country>US</country>
          <latitude>58.65</latitude>
          <longitude>-154.17</longitude>
          <elevation>0</elevation>
          <priority>0</priority>
          <wfo>AFC</wfo>
     </station>
     <station>
          <stid>AKZ219</stid>
          <stnnum>22190</stnnum>
          <stnname>Upper_Koyukuk_Valley</stnname>
          <state>AK</state>
          <country>US</country>
          <latitude>66.28</latitude>
          <longitude>-152.42</longitude>
          <elevation>0</elevation>
          <priority>0</priority>
          <wfo>AFG</wfo>
     </station>
     <station>
          <stid>AKZ221</stid>
          <stnnum>22210</stnnum>
          <stnname>Central_Interior</stnname>
          <state>AK</state>
          <country>US</country>
          <latitude>64.61</latitude>
          <longitude>-151.55</longitude>
          <elevation>0</elevation>
          <priority>0</priority>
          <wfo>AFG</wfo>
     </station>
     <station>
          <stid>AKZ145</stid>
          <stnnum>21450</stnnum>
          <stnname>Susitna_Valley</stnname>
          <state>AK</state>
          <country>US</country>
          <latitude>61.95</latitude>
          <longitude>-150.71</longitude>
          <elevation>0</elevation>
          <priority>0</priority>
          <wfo>AFC</wfo>
     </station>
     <station>
          <stid>AKZ121</stid>
          <stnnum>21210</stnnum>
          <stnname>Western_Kenai_Peninsula</stnname>
          <state>AK</state>
          <country>US</country>
          <latitude>60.12</latitude>
          <longitude>-150.69</longitude>
          <elevation>0</elevation>
          <priority>0</priority>
          <wfo>AFC</wfo>
     </station>
     <station>
          <stid>AKZ225</stid>
          <stnnum>22250</stnnum>
          <stnname>Denali</stnname>
          <state>AK</state>
          <country>US</country>
          <latitude>63.51</latitude>
          <longitude>-150.21</longitude>
          <elevation>0</elevation>
          <priority>0</priority>
          <wfo>AFG</wfo>
     </station>
     <station>
          <stid>AKZ101</stid>
          <stnnum>21010</stnnum>
          <stnname>Anchorage</stnname>
          <state>AK</state>
          <country>US</country>
          <latitude>61.20</latitude>
          <longitude>-149.71</longitude>
          <elevation>0</elevation>
          <priority>0</priority>
          <wfo>AFC</wfo>
     </station>
     <station>
          <stid>AKZ203</stid>
          <stnnum>22030</stnnum>
          <stnname>Central_Beaufort_Sea_Coast</stnname>
          <state>AK</state>
          <country>US</country>
          <latitude>70.34</latitude>
          <longitude>-149.66</longitude>
          <elevation>0</elevation>
          <priority>0</priority>
          <wfo>AFG</wfo>
     </station>
     <station>
          <stid>AKZ111</stid>
          <stnnum>21110</stnnum>
          <stnname>Matanuska_Valley</stnname>
          <state>AK</state>
          <country>US</country>
          <latitude>61.60</latitude>
          <longitude>-149.43</longitude>
          <elevation>0</elevation>
          <priority>0</priority>
          <wfo>AFC</wfo>
     </station>
     <station>
          <stid>AKZ125</stid>
          <stnnum>21250</stnnum>
          <stnname>Western_Prince_William_Sound</stnname>
          <state>AK</state>
          <country>US</country>
          <latitude>60.28</latitude>
          <longitude>-149.43</longitude>
          <elevation>0</elevation>
          <priority>0</priority>
          <wfo>AFC</wfo>
     </station>
     <station>
          <stid>AKZ218</stid>
          <stnnum>22180</stnnum>
          <stnname>Southeastern_Brooks_Range</stnname>
          <state>AK</state>
          <country>US</country>
          <latitude>67.94</latitude>
          <longitude>-147.78</longitude>
          <elevation>0</elevation>
          <priority>0</priority>
          <wfo>AFG</wfo>
     </station>
     <station>
          <stid>AKZ206</stid>
          <stnnum>22060</stnnum>
          <stnname>Northeastern_Brooks_Range</stnname>
          <state>AK</state>
          <country>US</country>
          <latitude>68.97</latitude>
          <longitude>-147.55</longitude>
          <elevation>0</elevation>
          <priority>0</priority>
          <wfo>AFG</wfo>
     </station>
     <station>
          <stid>AKZ222</stid>
          <stnnum>22220</stnnum>
          <stnname>Middle_Tanana_Valley</stnname>
          <state>AK</state>
          <country>US</country>
          <latitude>64.97</latitude>
          <longitude>-147.45</longitude>
          <elevation>0</elevation>
          <priority>0</priority>
          <wfo>AFG</wfo>
     </station>
     <station>
          <stid>AKZ223</stid>
          <stnnum>22230</stnnum>
          <stnname>Deltana_and_Tanana_Flats</stnname>
          <state>AK</state>
          <country>US</country>
          <latitude>64.13</latitude>
          <longitude>-146.62</longitude>
          <elevation>0</elevation>
          <priority>0</priority>
          <wfo>AFG</wfo>
     </station>
     <station>
          <stid>AKZ131</stid>
          <stnnum>21310</stnnum>
          <stnname>Northeast_Prince_William_Sound</stnname>
          <state>AK</state>
          <country>US</country>
          <latitude>61.14</latitude>
          <longitude>-146.39</longitude>
          <elevation>0</elevation>
          <priority>0</priority>
          <wfo>AFC</wfo>
     </station>
     <station>
          <stid>AKZ220</stid>
          <stnnum>22200</stnnum>
          <stnname>Yukon_Flats_and_Surrounding_Upla</stnname>
          <state>AK</state>
          <country>US</country>
          <latitude>66.46</latitude>
          <longitude>-146.25</longitude>
          <elevation>0</elevation>
          <priority>0</priority>
          <wfo>AFG</wfo>
     </station>
     <station>
          <stid>AKZ135</stid>
          <stnnum>21350</stnnum>
          <stnname>Southeast_Prince_William_Sound</stnname>
          <state>AK</state>
          <country>US</country>
          <latitude>60.65</latitude>
          <longitude>-145.32</longitude>
          <elevation>0</elevation>
          <priority>0</priority>
          <wfo>AFC</wfo>
     </station>
     <station>
          <stid>AKZ141</stid>
          <stnnum>21410</stnnum>
          <stnname>Copper_River_Basin</stnname>
          <state>AK</state>
          <country>US</country>
          <latitude>61.88</latitude>
          <longitude>-144.85</longitude>
          <elevation>0</elevation>
          <priority>0</priority>
          <wfo>AFC</wfo>
     </station>
     <station>
          <stid>AKZ204</stid>
          <stnnum>22040</stnnum>
          <stnname>Eastern_Beaufort_Sea_Coast</stnname>
          <state>AK</state>
          <country>US</country>
          <latitude>69.85</latitude>
          <longitude>-143.75</longitude>
          <elevation>0</elevation>
          <priority>0</priority>
          <wfo>AFG</wfo>
     </station>
     <station>
          <stid>AKZ224</stid>
          <stnnum>22240</stnnum>
          <stnname>Upr_Tanana_Vly_and_the_Ftymile_C</stnname>
          <state>AK</state>
          <country>US</country>
          <latitude>64.21</latitude>
          <longitude>-143.50</longitude>
          <elevation>0</elevation>
          <priority>0</priority>
          <wfo>AFG</wfo>
     </station>
     <station>
          <stid>AKZ226</stid>
          <stnnum>22260</stnnum>
          <stnname>Eastern_Alaska_Range</stnname>
          <state>AK</state>
          <country>US</country>
          <latitude>62.77</latitude>
          <longitude>-142.76</longitude>
          <elevation>0</elevation>
          <priority>0</priority>
          <wfo>AFG</wfo>
     </station>
     <station>
          <stid>AKZ017</stid>
          <stnnum>20170</stnnum>
          <stnname>C_Fairweather_to_C_Suckling_Csta</stnname>
          <state>AK</state>
          <country>US</country>
          <latitude>59.74</latitude>
          <longitude>-140.70</longitude>
          <elevation>0</elevation>
          <priority>0</priority>
          <wfo>AJK</wfo>
     </station>
     <station>
          <stid>AKZ022</stid>
          <stnnum>20220</stnnum>
          <stnname>Salisbury_Snd_to_C_Fairweather_C</stnname>
          <state>AK</state>
          <country>US</country>
          <latitude>58.68</latitude>
          <longitude>-137.66</longitude>
          <elevation>0</elevation>
          <priority>0</priority>
          <wfo>AJK</wfo>
     </station>
     <station>
          <stid>AKZ020</stid>
          <stnnum>20200</stnnum>
          <stnname>Glacier_Bay</stnname>
          <state>AK</state>
          <country>US</country>
          <latitude>58.79</latitude>
          <longitude>-136.99</longitude>
          <elevation>0</elevation>
          <priority>0</priority>
          <wfo>AJK</wfo>
     </station>
     <station>
          <stid>AKZ021</stid>
          <stnnum>20210</stnnum>
          <stnname>Eastern_Chichagof_Island</stnname>
          <state>AK</state>
          <country>US</country>
          <latitude>57.88</latitude>
          <longitude>-135.51</longitude>
          <elevation>0</elevation>
          <priority>0</priority>
          <wfo>AJK</wfo>
     </station>
     <station>
          <stid>AKZ019</stid>
          <stnnum>20190</stnnum>
          <stnname>Haines_Borough_and_Lynn_Canal</stnname>
          <state>AK</state>
          <country>US</country>
          <latitude>58.95</latitude>
          <longitude>-135.41</longitude>
          <elevation>0</elevation>
          <priority>0</priority>
          <wfo>AJK</wfo>
     </station>
     <station>
          <stid>AKZ018</stid>
          <stnnum>20180</stnnum>
          <stnname>Taiya_Inlet_and_Klondike_Hiway</stnname>
          <state>AK</state>
          <country>US</country>
          <latitude>59.57</latitude>
          <longitude>-135.35</longitude>
          <elevation>0</elevation>
          <priority>0</priority>
          <wfo>AJK</wfo>
     </station>
     <station>
          <stid>AKZ023</stid>
          <stnnum>20230</stnnum>
          <stnname>C_Decision_to_Salisbury_Snd_Csta</stnname>
          <state>AK</state>
          <country>US</country>
          <latitude>56.85</latitude>
          <longitude>-135.25</longitude>
          <elevation>0</elevation>
          <priority>0</priority>
          <wfo>AJK</wfo>
     </station>
     <station>
          <stid>AKZ024</stid>
          <stnnum>20240</stnnum>
          <stnname>Ern_Baranof_I_and_Srn_Admty_I</stnname>
          <state>AK</state>
          <country>US</country>
          <latitude>57.31</latitude>
          <longitude>-134.27</longitude>
          <elevation>0</elevation>
          <priority>0</priority>
          <wfo>AJK</wfo>
     </station>
     <station>
          <stid>AKZ025</stid>
          <stnnum>20250</stnnum>
          <stnname>Juneau_Borough_and_Nrn_Admty_I</stnname>
          <state>AK</state>
          <country>US</country>
          <latitude>58.08</latitude>
          <longitude>-133.64</longitude>
          <elevation>0</elevation>
          <priority>0</priority>
          <wfo>AJK</wfo>
     </station>
     <station>
          <stid>AKZ027</stid>
          <stnnum>20270</stnnum>
          <stnname>Dixon_Entr_to_C_Decision_Cstal_A</stnname>
          <state>AK</state>
          <country>US</country>
          <latitude>55.36</latitude>
          <longitude>-133.19</longitude>
          <elevation>0</elevation>
          <priority>0</priority>
          <wfo>AJK</wfo>
     </station>
     <station>
          <stid>AKZ026</stid>
          <stnnum>20260</stnnum>
          <stnname>Inr_Chnls_fr_Kupreanof_I_to_Etol</stnname>
          <state>AK</state>
          <country>US</country>
          <latitude>56.53</latitude>
          <longitude>-133.00</longitude>
          <elevation>0</elevation>
          <priority>0</priority>
          <wfo>AJK</wfo>
     </station>
     <station>
          <stid>AKZ028</stid>
          <stnnum>20280</stnnum>
          <stnname>Southern_Inner_Channels</stnname>
          <state>AK</state>
          <country>US</country>
          <latitude>55.71</latitude>
          <longitude>-132.71</longitude>
          <elevation>0</elevation>
          <priority>0</priority>
          <wfo>AJK</wfo>
     </station>
     <station>
          <stid>AKZ029</stid>
          <stnnum>20290</stnnum>
          <stnname>Misty_Fjords</stnname>
          <state>AK</state>
          <country>US</country>
          <latitude>55.67</latitude>
          <longitude>-130.98</longitude>
          <elevation>0</elevation>
          <priority>0</priority>
          <wfo>AJK</wfo>
     </station>
     <station>
          <stid>WAZ516</stid>
          <stnnum>475160</stnnum>
          <stnname>North_Coast</stnname>
          <state>WA</state>
          <country>US</country>
          <latitude>47.95</latitude>
          <longitude>-124.39</longitude>
          <elevation>0</elevation>
          <priority>0</priority>
          <wfo>SEW</wfo>
     </station>
     <station>
          <stid>ORZ022</stid>
          <stnnum>370220</stnnum>
          <stnname>Curry_County_Coast</stnname>
          <state>OR</state>
          <country>US</country>
          <latitude>42.35</latitude>
          <longitude>-124.27</longitude>
          <elevation>0</elevation>
          <priority>0</priority>
          <wfo>MFR</wfo>
     </station>
     <station>
          <stid>WAZ515</stid>
          <stnnum>475150</stnnum>
          <stnname>Western_Strait_of_Juan_De_Fuca</stnname>
          <state>WA</state>
          <country>US</country>
          <latitude>48.19</latitude>
          <longitude>-124.25</longitude>
          <elevation>0</elevation>
          <priority>0</priority>
          <wfo>SEW</wfo>
     </station>
     <station>
          <stid>ORZ021</stid>
          <stnnum>370210</stnnum>
          <stnname>South_Central_Oregon_Coast</stnname>
          <state>OR</state>
          <country>US</country>
          <latitude>43.28</latitude>
          <longitude>-124.24</longitude>
          <elevation>0</elevation>
          <priority>0</priority>
          <wfo>MFR</wfo>
     </station>
     <station>
          <stid>WAZ517</stid>
          <stnnum>475170</stnnum>
          <stnname>Central_Coast</stnname>
          <state>WA</state>
          <country>US</country>
          <latitude>47.16</latitude>
          <longitude>-124.06</longitude>
          <elevation>0</elevation>
          <priority>0</priority>
          <wfo>SEW</wfo>
     </station>
     <station>
          <stid>CAZ001</stid>
          <stnnum>50010</stnnum>
          <stnname>Redwood_Coast</stnname>
          <state>CA</state>
          <country>US</country>
          <latitude>41.02</latitude>
          <longitude>-124.03</longitude>
          <elevation>0</elevation>
          <priority>0</priority>
          <wfo>EKA</wfo>
     </station>
     <station>
          <stid>ORZ002</stid>
          <stnnum>370020</stnnum>
          <stnname>Central_Oregon_Coast</stnname>
          <state>OR</state>
          <country>US</country>
          <latitude>44.44</latitude>
          <longitude>-124.01</longitude>
          <elevation>0</elevation>
          <priority>0</priority>
          <wfo>PQR</wfo>
     </station>
     <station>
          <stid>ORZ001</stid>
          <stnnum>370010</stnnum>
          <stnname>North_Oregon_Coast</stnname>
          <state>OR</state>
          <country>US</country>
          <latitude>45.64</latitude>
          <longitude>-123.92</longitude>
          <elevation>0</elevation>
          <priority>0</priority>
          <wfo>PQR</wfo>
     </station>
     <station>
          <stid>ORZ024</stid>
          <stnnum>370240</stnnum>
          <stnname>Ern_Curry_Cnty_and_Josephine_Cnt</stnname>
          <state>OR</state>
          <country>US</country>
          <latitude>42.39</latitude>
          <longitude>-123.75</longitude>
          <elevation>0</elevation>
          <priority>0</priority>
          <wfo>MFR</wfo>
     </station>
     <station>
          <stid>CAZ003</stid>
          <stnnum>50030</stnnum>
          <stnname>North_Coast_Interior</stnname>
          <state>CA</state>
          <country>US</country>
          <latitude>40.99</latitude>
          <longitude>-123.72</longitude>
          <elevation>0</elevation>
          <priority>0</priority>
          <wfo>EKA</wfo>
     </station>
     <station>
          <stid>WAZ021</stid>
          <stnnum>470210</stnnum>
          <stnname>South_Washington_Coast</stnname>
          <state>WA</state>
          <country>US</country>
          <latitude>46.47</latitude>
          <longitude>-123.71</longitude>
          <elevation>0</elevation>
          <priority>0</priority>
          <wfo>PQR</wfo>
     </station>
     <station>
          <stid>CAZ002</stid>
          <stnnum>50020</stnnum>
          <stnname>Mendocino_Coast</stnname>
          <state>CA</state>
          <country>US</country>
          <latitude>39.40</latitude>
          <longitude>-123.64</longitude>
          <elevation>0</elevation>
          <priority>0</priority>
          <wfo>EKA</wfo>
     </station>
     <station>
          <stid>ORZ004</stid>
          <stnnum>370040</stnnum>
          <stnname>Ctrl_Coast_Range_of_Wrn_Oregon</stnname>
          <state>OR</state>
          <country>US</country>
          <latitude>44.42</latitude>
          <longitude>-123.62</longitude>
          <elevation>0</elevation>
          <priority>0</priority>
          <wfo>PQR</wfo>
     </station>
     <station>
          <stid>WAZ513</stid>
          <stnnum>475130</stnnum>
          <stnname>Olympics</stnname>
          <state>WA</state>
          <country>US</country>
          <latitude>47.71</latitude>
          <longitude>-123.61</longitude>
          <elevation>0</elevation>
          <priority>0</priority>
          <wfo>SEW</wfo>
     </station>
     <station>
          <stid>WAZ512</stid>
          <stnnum>475120</stnnum>
          <stnname>Lower_Chehalis_Valley_Area</stnname>
          <state>WA</state>
          <country>US</country>
          <latitude>47.09</latitude>
          <longitude>-123.52</longitude>
          <elevation>0</elevation>
          <priority>0</priority>
          <wfo>SEW</wfo>
     </station>
     <station>
          <stid>WAZ020</stid>
          <stnnum>470200</stnnum>
          <stnname>Willapa_Hills</stnname>
          <state>WA</state>
          <country>US</country>
          <latitude>46.52</latitude>
          <longitude>-123.51</longitude>
          <elevation>0</elevation>
          <priority>0</priority>
          <wfo>PQR</wfo>
     </station>
     <station>
          <stid>ORZ003</stid>
          <stnnum>370030</stnnum>
          <stnname>Coast_Range_of_Northwest_Oregon</stnname>
          <state>OR</state>
          <country>US</country>
          <latitude>45.59</latitude>
          <longitude>-123.40</longitude>
          <elevation>0</elevation>
          <priority>0</priority>
          <wfo>PQR</wfo>
     </station>
     <station>
          <stid>CAZ076</stid>
          <stnnum>50760</stnnum>
          <stnname>Mendocino_Interior</stnname>
          <state>CA</state>
          <country>US</country>
          <latitude>39.40</latitude>
          <longitude>-123.39</longitude>
          <elevation>0</elevation>
          <priority>0</priority>
          <wfo>EKA</wfo>
     </station>
     <station>
          <stid>ORZ023</stid>
          <stnnum>370230</stnnum>
          <stnname>Central_Douglas_County</stnname>
          <state>OR</state>
          <country>US</country>
          <latitude>43.32</latitude>
          <longitude>-123.35</longitude>
          <elevation>0</elevation>
          <priority>0</priority>
          <wfo>MFR</wfo>
     </station>
     <station>
          <stid>WAZ514</stid>
          <stnnum>475140</stnnum>
          <stnname>Eastern_Strait_of_Juan_de_Fuca</stnname>
          <state>WA</state>
          <country>US</country>
          <latitude>48.07</latitude>
          <longitude>-123.28</longitude>
          <elevation>0</elevation>
          <priority>0</priority>
          <wfo>SEW</wfo>
     </station>
     <station>
          <stid>CAZ080</stid>
          <stnnum>50800</stnnum>
          <stnname>Western_Siskiyou_County</stnname>
          <state>CA</state>
          <country>US</country>
          <latitude>41.49</latitude>
          <longitude>-123.13</longitude>
          <elevation>0</elevation>
          <priority>0</priority>
          <wfo>MFR</wfo>
     </station>
     <station>
          <stid>ORZ008</stid>
          <stnnum>370080</stnnum>
          <stnname>South__Willamette_Valley</stnname>
          <state>OR</state>
          <country>US</country>
          <latitude>44.32</latitude>
          <longitude>-123.11</longitude>
          <elevation>0</elevation>
          <priority>0</priority>
          <wfo>PQR</wfo>
     </station>
     <station>
          <stid>CAZ004</stid>
          <stnnum>50040</stnnum>
          <stnname>Upper_Trinity_River</stnname>
          <state>CA</state>
          <country>US</country>
          <latitude>40.44</latitude>
          <longitude>-123.07</longitude>
          <elevation>0</elevation>
          <priority>0</priority>
          <wfo>EKA</wfo>
     </station>
     <station>
          <stid>CAZ505</stid>
          <stnnum>55050</stnnum>
          <stnname>Cstal_N_Bay_Incl_Pt_Reyes_Natl_S</stnname>
          <state>CA</state>
          <country>US</country>
          <latitude>38.30</latitude>
          <longitude>-122.99</longitude>
          <elevation>0</elevation>
          <priority>0</priority>
          <wfo>MTR</wfo>
     </station>
     <station>
          <stid>WAZ001</stid>
          <stnnum>470010</stnnum>
          <stnname>San_Juan_County</stnname>
          <state>WA</state>
          <country>US</country>
          <latitude>48.60</latitude>
          <longitude>-122.99</longitude>
          <elevation>0</elevation>
          <priority>0</priority>
          <wfo>SEW</wfo>
     </station>
     <station>
          <stid>ORZ007</stid>
          <stnnum>370070</stnnum>
          <stnname>Central_Willamette_Valley</stnname>
          <state>OR</state>
          <country>US</country>
          <latitude>45.05</latitude>
          <longitude>-122.94</longitude>
          <elevation>0</elevation>
          <priority>0</priority>
          <wfo>PQR</wfo>
     </station>
     <station>
          <stid>WAZ511</stid>
          <stnnum>475110</stnnum>
          <stnname>Hood_Canal_Area</stnname>
          <state>WA</state>
          <country>US</country>
          <latitude>47.52</latitude>
          <longitude>-122.94</longitude>
          <elevation>0</elevation>
          <priority>0</priority>
          <wfo>SEW</wfo>
     </station>
     <station>
          <stid>WAZ022</stid>
          <stnnum>470220</stnnum>
          <stnname>Lwr_Columbia_and_I_-_5_Corridor_</stnname>
          <state>WA</state>
          <country>US</country>
          <latitude>46.11</latitude>
          <longitude>-122.88</longitude>
          <elevation>0</elevation>
          <priority>0</priority>
          <wfo>PQR</wfo>
     </station>
     <station>
          <stid>ORZ005</stid>
          <stnnum>370050</stnnum>
          <stnname>Lower_Columbia</stnname>
          <state>OR</state>
          <country>US</country>
          <latitude>45.97</latitude>
          <longitude>-122.87</longitude>
          <elevation>0</elevation>
          <priority>0</priority>
          <wfo>PQR</wfo>
     </station>
     <station>
          <stid>WAZ504</stid>
          <stnnum>475040</stnnum>
          <stnname>Southwest_Interior</stnname>
          <state>WA</state>
          <country>US</country>
          <latitude>46.78</latitude>
          <longitude>-122.87</longitude>
          <elevation>0</elevation>
          <priority>0</priority>
          <wfo>SEW</wfo>
     </station>
     <station>
          <stid>ORZ026</stid>
          <stnnum>370260</stnnum>
          <stnname>Jackson_County</stnname>
          <state>OR</state>
          <country>US</country>
          <latitude>42.48</latitude>
          <longitude>-122.86</longitude>
          <elevation>0</elevation>
          <priority>0</priority>
          <wfo>MFR</wfo>
     </station>
     <station>
          <stid>ORZ006</stid>
          <stnnum>370060</stnnum>
          <stnname>Greater_Portland_Metro_Area</stnname>
          <state>OR</state>
          <country>US</country>
          <latitude>45.52</latitude>
          <longitude>-122.83</longitude>
          <elevation>0</elevation>
          <priority>0</priority>
          <wfo>PQR</wfo>
     </station>
     <station>
          <stid>CAZ506</stid>
          <stnnum>55060</stnnum>
          <stnname>North_Bay_Interior_Valleys</stnname>
          <state>CA</state>
          <country>US</country>
          <latitude>38.34</latitude>
          <longitude>-122.78</longitude>
          <elevation>0</elevation>
          <priority>0</priority>
          <wfo>MTR</wfo>
     </station>
     <station>
          <stid>ORZ012</stid>
          <stnnum>370120</stnnum>
          <stnname>Cascade_Foothills_in_Lane_Cnty</stnname>
          <state>OR</state>
          <country>US</country>
          <latitude>43.91</latitude>
          <longitude>-122.77</longitude>
          <elevation>0</elevation>
          <priority>0</priority>
          <wfo>PQR</wfo>
     </station>
     <station>
          <stid>ORZ025</stid>
          <stnnum>370250</stnnum>
          <stnname>Ern_Douglas_County_Foothills</stnname>
          <state>OR</state>
          <country>US</country>
          <latitude>43.18</latitude>
          <longitude>-122.75</longitude>
          <elevation>0</elevation>
          <priority>0</priority>
          <wfo>MFR</wfo>
     </station>
     <station>
          <stid>CAZ063</stid>
          <stnnum>50630</stnnum>
          <stnname>Mtns_SWrn_Shasta_Cnty_to_Nrn_L_C</stnname>
          <state>CA</state>
          <country>US</country>
          <latitude>39.91</latitude>
          <longitude>-122.73</longitude>
          <elevation>0</elevation>
          <priority>0</priority>
          <wfo>STO</wfo>
     </station>
     <station>
          <stid>CAZ064</stid>
          <stnnum>50640</stnnum>
          <stnname>Clear_Lake/Southern_Lake_County</stnname>
          <state>CA</state>
          <country>US</country>
          <latitude>38.96</latitude>
          <longitude>-122.67</longitude>
          <elevation>0</elevation>
          <priority>0</priority>
          <wfo>STO</wfo>
     </station>
     <station>
          <stid>CAZ081</stid>
          <stnnum>50810</stnnum>
          <stnname>Central_Siskiyou_County</stnname>
          <state>CA</state>
          <country>US</country>
          <latitude>41.68</latitude>
          <longitude>-122.60</longitude>
          <elevation>0</elevation>
          <priority>0</priority>
          <wfo>MFR</wfo>
     </station>
     <station>
          <stid>WAZ503</stid>
          <stnnum>475030</stnnum>
          <stnname>Western_Whatcom_County</stnname>
          <state>WA</state>
          <country>US</country>
          <latitude>48.82</latitude>
          <longitude>-122.59</longitude>
          <elevation>0</elevation>
          <priority>0</priority>
          <wfo>SEW</wfo>
     </station>
     <station>
          <stid>WAZ039</stid>
          <stnnum>470390</stnnum>
          <stnname>Greater_Vancouver_Area</stnname>
          <state>WA</state>
          <country>US</country>
          <latitude>45.73</latitude>
          <longitude>-122.54</longitude>
          <elevation>0</elevation>
          <priority>0</priority>
          <wfo>PQR</wfo>
     </station>
     <station>
          <stid>ORZ010</stid>
          <stnnum>370100</stnnum>
          <stnname>Nrn_Oregon_Cascade_Foothills</stnname>
          <state>OR</state>
          <country>US</country>
          <latitude>44.86</latitude>
          <longitude>-122.52</longitude>
          <elevation>0</elevation>
          <priority>0</priority>
          <wfo>PQR</wfo>
     </station>
     <station>
          <stid>WAZ509</stid>
          <stnnum>475090</stnnum>
          <stnname>Tacoma_Area</stnname>
          <state>WA</state>
          <country>US</country>
          <latitude>47.17</latitude>
          <longitude>-122.52</longitude>
          <elevation>0</elevation>
          <priority>0</priority>
          <wfo>SEW</wfo>
     </station>
     <station>
          <stid>WAZ510</stid>
          <stnnum>475100</stnnum>
          <stnname>Admiralty_Inlet_Area</stnname>
          <state>WA</state>
          <country>US</country>
          <latitude>48.15</latitude>
          <longitude>-122.50</longitude>
          <elevation>0</elevation>
          <priority>0</priority>
          <wfo>SEW</wfo>
     </station>
     <station>
          <stid>WAZ040</stid>
          <stnnum>470400</stnnum>
          <stnname>S_Washington_Cascade_Foothills</stnname>
          <state>WA</state>
          <country>US</country>
          <latitude>46.00</latitude>
          <longitude>-122.48</longitude>
          <elevation>0</elevation>
          <priority>0</priority>
          <wfo>PQR</wfo>
     </station>
     <station>
          <stid>CAZ006</stid>
          <stnnum>50060</stnnum>
          <stnname>San_Francisco</stnname>
          <state>CA</state>
          <country>US</country>
          <latitude>37.75</latitude>
          <longitude>-122.42</longitude>
          <elevation>0</elevation>
          <priority>0</priority>
          <wfo>MTR</wfo>
     </station>
     <station>
          <stid>WAZ506</stid>
          <stnnum>475060</stnnum>
          <stnname>Western_Skagit_County</stnname>
          <state>WA</state>
          <country>US</country>
          <latitude>48.47</latitude>
          <longitude>-122.42</longitude>
          <elevation>0</elevation>
          <priority>0</priority>
          <wfo>SEW</wfo>
     </station>
     <station>
          <stid>CAZ509</stid>
          <stnnum>55090</stnnum>
          <stnname>San_Francisco_Peninsula_Coast</stnname>
          <state>CA</state>
          <country>US</country>
          <latitude>37.36</latitude>
          <longitude>-122.38</longitude>
          <elevation>0</elevation>
          <priority>0</priority>
          <wfo>MTR</wfo>
     </station>
     <station>
          <stid>WAZ508</stid>
          <stnnum>475080</stnnum>
          <stnname>Seattle/Bremerton_Area</stnname>
          <state>WA</state>
          <country>US</country>
          <latitude>47.51</latitude>
          <longitude>-122.29</longitude>
          <elevation>0</elevation>
          <priority>0</priority>
          <wfo>SEW</wfo>
     </station>
     <station>
          <stid>CAZ507</stid>
          <stnnum>55070</stnnum>
          <stnname>North_Bay_Mountains</stnname>
          <state>CA</state>
          <country>US</country>
          <latitude>38.54</latitude>
          <longitude>-122.27</longitude>
          <elevation>0</elevation>
          <priority>0</priority>
          <wfo>MTR</wfo>
     </station>
     <station>
          <stid>CAZ015</stid>
          <stnnum>50150</stnnum>
          <stnname>Northern_Sacramento_Valley</stnname>
          <state>CA</state>
          <country>US</country>
          <latitude>40.26</latitude>
          <longitude>-122.25</longitude>
          <elevation>0</elevation>
          <priority>0</priority>
          <wfo>STO</wfo>
     </station>
     <station>
          <stid>ORZ013</stid>
          <stnnum>370130</stnnum>
          <stnname>Cascades_in_Lane_County</stnname>
          <state>OR</state>
          <country>US</country>
          <latitude>43.84</latitude>
          <longitude>-122.25</longitude>
          <elevation>0</elevation>
          <priority>0</priority>
          <wfo>PQR</wfo>
     </station>
     <station>
          <stid>ORZ028</stid>
          <stnnum>370280</stnnum>
          <stnname>Siskiyou_Mtns_and_Srn_Oregon_Cas</stnname>
          <state>OR</state>
          <country>US</country>
          <latitude>42.41</latitude>
          <longitude>-122.24</longitude>
          <elevation>0</elevation>
          <priority>0</priority>
          <wfo>MFR</wfo>
     </station>
     <station>
          <stid>CAZ013</stid>
          <stnnum>50130</stnnum>
          <stnname>Shasta_L_Area_/_Nrn_Shasta_Cnty</stnname>
          <state>CA</state>
          <country>US</country>
          <latitude>40.87</latitude>
          <longitude>-122.21</longitude>
          <elevation>0</elevation>
          <priority>0</priority>
          <wfo>STO</wfo>
     </station>
     <station>
          <stid>ORZ027</stid>
          <stnnum>370270</stnnum>
          <stnname>South_Central_Oregon_Cascades</stnname>
          <state>OR</state>
          <country>US</country>
          <latitude>43.21</latitude>
          <longitude>-122.21</longitude>
          <elevation>0</elevation>
          <priority>0</priority>
          <wfo>MFR</wfo>
     </station>
     <station>
          <stid>CAZ082</stid>
          <stnnum>50820</stnnum>
          <stnname>South_Central_Siskiyou_County</stnname>
          <state>CA</state>
          <country>US</country>
          <latitude>41.30</latitude>
          <longitude>-122.14</longitude>
          <elevation>0</elevation>
          <priority>0</priority>
          <wfo>MFR</wfo>
     </station>
     <station>
          <stid>WAZ507</stid>
          <stnnum>475070</stnnum>
          <stnname>Everett_and_Vicinity</stnname>
          <state>WA</state>
          <country>US</country>
          <latitude>48.03</latitude>
          <longitude>-122.14</longitude>
          <elevation>0</elevation>
          <priority>0</priority>
          <wfo>SEW</wfo>
     </station>
     <station>
          <stid>CAZ508</stid>
          <stnnum>55080</stnnum>
          <stnname>San_Francisco_Bay_Shoreline</stnname>
          <state>CA</state>
          <country>US</country>
          <latitude>37.64</latitude>
          <longitude>-122.08</longitude>
          <elevation>0</elevation>
          <priority>0</priority>
          <wfo>MTR</wfo>
     </station>
     <station>
          <stid>WAZ505</stid>
          <stnnum>475050</stnnum>
          <stnname>East_Puget_Sound_Lowlands</stnname>
          <state>WA</state>
          <country>US</country>
          <latitude>47.53</latitude>
          <longitude>-122.05</longitude>
          <elevation>0</elevation>
          <priority>0</priority>
          <wfo>SEW</wfo>
     </station>
     <station>
          <stid>WAZ019</stid>
          <stnnum>470190</stnnum>
          <stnname>South_Washington_Cascades</stnname>
          <state>WA</state>
          <country>US</country>
          <latitude>46.00</latitude>
          <longitude>-122.04</longitude>
          <elevation>0</elevation>
          <priority>0</priority>
          <wfo>PQR</wfo>
     </station>
     <station>
          <stid>CAZ512</stid>
          <stnnum>55120</stnnum>
          <stnname>Santa_Cruz_Mountains</stnname>
          <state>CA</state>
          <country>US</country>
          <latitude>37.20</latitude>
          <longitude>-121.98</longitude>
          <elevation>0</elevation>
          <priority>0</priority>
          <wfo>MTR</wfo>
     </station>
     <station>
          <stid>CAZ510</stid>
          <stnnum>55100</stnnum>
          <stnname>East_Bay_Interior_Valleys</stnname>
          <state>CA</state>
          <country>US</country>
          <latitude>37.82</latitude>
          <longitude>-121.97</longitude>
          <elevation>0</elevation>
          <priority>0</priority>
          <wfo>MTR</wfo>
     </station>
     <station>
          <stid>ORZ009</stid>
          <stnnum>370090</stnnum>
          <stnname>Western_Columbia_River_Gorge</stnname>
          <state>OR</state>
          <country>US</country>
          <latitude>45.61</latitude>
          <longitude>-121.96</longitude>
          <elevation>0</elevation>
          <priority>0</priority>
          <wfo>PQR</wfo>
     </station>
     <station>
          <stid>ORZ011</stid>
          <stnnum>370110</stnnum>
          <stnname>Northern_Oregon_Cascades</stnname>
          <state>OR</state>
          <country>US</country>
          <latitude>44.93</latitude>
          <longitude>-121.94</longitude>
          <elevation>0</elevation>
          <priority>0</priority>
          <wfo>PQR</wfo>
     </station>
     <station>
          <stid>WAZ023</stid>
          <stnnum>470230</stnnum>
          <stnname>Western_Columbia_River_Gorge</stnname>
          <state>WA</state>
          <country>US</country>
          <latitude>45.66</latitude>
          <longitude>-121.92</longitude>
          <elevation>0</elevation>
          <priority>0</priority>
          <wfo>PQR</wfo>
     </station>
     <station>
          <stid>CAZ016</stid>
          <stnnum>50160</stnnum>
          <stnname>Central_Sacramento_Valley</stnname>
          <state>CA</state>
          <country>US</country>
          <latitude>39.40</latitude>
          <longitude>-121.90</longitude>
          <elevation>0</elevation>
          <priority>0</priority>
          <wfo>STO</wfo>
     </station>
     <station>
          <stid>CAZ083</stid>
          <stnnum>50830</stnnum>
          <stnname>N_Ctrl_and_SE_Siskiyou_County</stnname>
          <state>CA</state>
          <country>US</country>
          <latitude>41.59</latitude>
          <longitude>-121.90</longitude>
          <elevation>0</elevation>
          <priority>0</priority>
          <wfo>MFR</wfo>
     </station>
     <station>
          <stid>CAZ530</stid>
          <stnnum>55300</stnnum>
          <stnname>Srn_Monterey_Bay_and_Big_Sur_Cst</stnname>
          <state>CA</state>
          <country>US</country>
          <latitude>36.35</latitude>
          <longitude>-121.90</longitude>
          <elevation>0</elevation>
          <priority>0</priority>
          <wfo>MTR</wfo>
     </station>
     <station>
          <stid>WAZ519</stid>
          <stnnum>475190</stnnum>
          <stnname>W_Slopes_Ctrl_Cascades_and_Passe</stnname>
          <state>WA</state>
          <country>US</country>
          <latitude>47.08</latitude>
          <longitude>-121.89</longitude>
          <elevation>0</elevation>
          <priority>0</priority>
          <wfo>SEW</wfo>
     </station>
     <station>
          <stid>CAZ018</stid>
          <stnnum>50180</stnnum>
          <stnname>Carquinez_Strait_and_Delta</stnname>
          <state>CA</state>
          <country>US</country>
          <latitude>38.07</latitude>
          <longitude>-121.80</longitude>
          <elevation>0</elevation>
          <priority>0</priority>
          <wfo>STO</wfo>
     </station>
     <station>
          <stid>CAZ529</stid>
          <stnnum>55290</stnnum>
          <stnname>Northern_Monterey_Bay</stnname>
          <state>CA</state>
          <country>US</country>
          <latitude>36.96</latitude>
          <longitude>-121.79</longitude>
          <elevation>0</elevation>
          <priority>0</priority>
          <wfo>MTR</wfo>
     </station>
     <station>
          <stid>CAZ511</stid>
          <stnnum>55110</stnnum>
          <stnname>E_Bay_Hills_and_the_Diablo_Rng</stnname>
          <state>CA</state>
          <country>US</country>
          <latitude>37.48</latitude>
          <longitude>-121.73</longitude>
          <elevation>0</elevation>
          <priority>0</priority>
          <wfo>MTR</wfo>
     </station>
     <station>
          <stid>CAZ513</stid>
          <stnnum>55130</stnnum>
          <stnname>Santa_Clara_Vly_Incl_San_Jose</stnname>
          <state>CA</state>
          <country>US</country>
          <latitude>37.17</latitude>
          <longitude>-121.69</longitude>
          <elevation>0</elevation>
          <priority>0</priority>
          <wfo>MTR</wfo>
     </station>
     <station>
          <stid>CAZ066</stid>
          <stnnum>50660</stnnum>
          <stnname>NE_Foothills/Sacramento_Valley</stnname>
          <state>CA</state>
          <country>US</country>
          <latitude>40.13</latitude>
          <longitude>-121.65</longitude>
          <elevation>0</elevation>
          <priority>0</priority>
          <wfo>STO</wfo>
     </station>
     <station>
          <stid>CAZ017</stid>
          <stnnum>50170</stnnum>
          <stnname>Southern_Sacramento_Valley</stnname>
          <state>CA</state>
          <country>US</country>
          <latitude>38.64</latitude>
          <longitude>-121.63</longitude>
          <elevation>0</elevation>
          <priority>0</priority>
          <wfo>STO</wfo>
     </station>
     <station>
          <stid>CAZ084</stid>
          <stnnum>50840</stnnum>
          <stnname>NE_Siskiyou_and_NW_Modoc_Cnties</stnname>
          <state>CA</state>
          <country>US</country>
          <latitude>41.86</latitude>
          <longitude>-121.63</longitude>
          <elevation>0</elevation>
          <priority>0</priority>
          <wfo>MFR</wfo>
     </station>
     <station>
          <stid>ORZ029</stid>
          <stnnum>370290</stnnum>
          <stnname>Klamath_Basin</stnname>
          <state>OR</state>
          <country>US</country>
          <latitude>42.47</latitude>
          <longitude>-121.63</longitude>
          <elevation>0</elevation>
          <priority>0</priority>
          <wfo>MFR</wfo>
     </station>
     <station>
          <stid>ORZ014</stid>
          <stnnum>370140</stnnum>
          <stnname>Upper_Hood_River_Valley</stnname>
          <state>OR</state>
          <country>US</country>
          <latitude>45.56</latitude>
          <longitude>-121.58</longitude>
          <elevation>0</elevation>
          <priority>0</priority>
          <wfo>PQR</wfo>
     </station>
     <station>
          <stid>CAZ528</stid>
          <stnnum>55280</stnnum>
          <stnname>Nrn_Salinas_Vly/Hollister_Vly_an</stnname>
          <state>CA</state>
          <country>US</country>
          <latitude>36.67</latitude>
          <longitude>-121.56</longitude>
          <elevation>0</elevation>
          <priority>0</priority>
          <wfo>MTR</wfo>
     </station>
     <station>
          <stid>CAZ014</stid>
          <stnnum>50140</stnnum>
          <stnname>Burney_Basin_/_Ern_Shasta_Cnty</stnname>
          <state>CA</state>
          <country>US</country>
          <latitude>40.88</latitude>
          <longitude>-121.52</longitude>
          <elevation>0</elevation>
          <priority>0</priority>
          <wfo>STO</wfo>
     </station>
     <station>
          <stid>WAZ518</stid>
          <stnnum>475180</stnnum>
          <stnname>W_Slopes_Nrn_Cascades_and_Passes</stnname>
          <state>WA</state>
          <country>US</country>
          <latitude>48.39</latitude>
          <longitude>-121.49</longitude>
          <elevation>0</elevation>
          <priority>0</priority>
          <wfo>SEW</wfo>
     </station>
     <station>
          <stid>CAZ517</stid>
          <stnnum>55170</stnnum>
          <stnname>Sta_Lucia_Mtns_and_Los_Padres_Na</stnname>
          <state>CA</state>
          <country>US</country>
          <latitude>36.19</latitude>
          <longitude>-121.39</longitude>
          <elevation>0</elevation>
          <priority>0</priority>
          <wfo>MTR</wfo>
     </station>
     <station>
          <stid>CAZ068</stid>
          <stnnum>50680</stnnum>
          <stnname>Wrn_Plumas_County/Lassen_Park</stnname>
          <state>CA</state>
          <country>US</country>
          <latitude>40.22</latitude>
          <longitude>-121.32</longitude>
          <elevation>0</elevation>
          <priority>0</priority>
          <wfo>STO</wfo>
     </station>
     <station>
          <stid>ORZ030</stid>
          <stnnum>370300</stnnum>
          <stnname>Nrn_and_Ern_Klamath_Cnty_and_Wrn</stnname>
          <state>OR</state>
          <country>US</country>
          <latitude>42.80</latitude>
          <longitude>-121.24</longitude>
          <elevation>0</elevation>
          <priority>0</priority>
          <wfo>MFR</wfo>
     </station>
     <station>
          <stid>ORZ042</stid>
          <stnnum>370420</stnnum>
          <stnname>North_Central_Oregon</stnname>
          <state>OR</state>
          <country>US</country>
          <latitude>45.04</latitude>
          <longitude>-121.10</longitude>
          <elevation>0</elevation>
          <priority>0</priority>
          <wfo>PDT</wfo>
     </station>
     <station>
          <stid>CAZ516</stid>
          <stnnum>55160</stnnum>
          <stnname>Srn_Salinas_Vly/Arroyo_Seco_and_</stnname>
          <state>CA</state>
          <country>US</country>
          <latitude>36.09</latitude>
          <longitude>-121.09</longitude>
          <elevation>0</elevation>
          <priority>0</priority>
          <wfo>MTR</wfo>
     </station>
     <station>
          <stid>WAZ024</stid>
          <stnnum>470240</stnnum>
          <stnname>East_Columbia_River_Gorge</stnname>
          <state>WA</state>
          <country>US</country>
          <latitude>45.70</latitude>
          <longitude>-121.06</longitude>
          <elevation>0</elevation>
          <priority>0</priority>
          <wfo>PDT</wfo>
     </station>
     <station>
          <stid>ORZ041</stid>
          <stnnum>370410</stnnum>
          <stnname>East_Columbia_River_Gorge</stnname>
          <state>OR</state>
          <country>US</country>
          <latitude>45.64</latitude>
          <longitude>-121.02</longitude>
          <elevation>0</elevation>
          <priority>0</priority>
          <wfo>PDT</wfo>
     </station>
     <station>
          <stid>WAZ501</stid>
          <stnnum>475010</stnnum>
          <stnname>E_Slopes_of_the_Ctrl_Cascades</stnname>
          <state>WA</state>
          <country>US</country>
          <latitude>47.05</latitude>
          <longitude>-120.96</longitude>
          <elevation>0</elevation>
          <priority>0</priority>
          <wfo>PDT</wfo>
     </station>
     <station>
          <stid>ORZ043</stid>
          <stnnum>370430</stnnum>
          <stnname>Central_Oregon</stnname>
          <state>OR</state>
          <country>US</country>
          <latitude>44.00</latitude>
          <longitude>-120.95</longitude>
          <elevation>0</elevation>
          <priority>0</priority>
          <wfo>PDT</wfo>
     </station>
     <station>
          <stid>CAZ019</stid>
          <stnnum>50190</stnnum>
          <stnname>Northern_San_Joaquin_Valley</stnname>
          <state>CA</state>
          <country>US</country>
          <latitude>37.76</latitude>
          <longitude>-120.93</longitude>
          <elevation>0</elevation>
          <priority>0</priority>
          <wfo>STO</wfo>
     </station>
     <station>
          <stid>CAZ518</stid>
          <stnnum>55180</stnnum>
          <stnname>Mtns_Of_Sn_Benito_Cnty_And_Int_M</stnname>
          <state>CA</state>
          <country>US</country>
          <latitude>36.39</latitude>
          <longitude>-120.89</longitude>
          <elevation>0</elevation>
          <priority>0</priority>
          <wfo>MTR</wfo>
     </station>
     <station>
          <stid>CAZ034</stid>
          <stnnum>50340</stnnum>
          <stnname>San_Luis_Obispo_Cnty_Ctrl_Coast</stnname>
          <state>CA</state>
          <country>US</country>
          <latitude>35.35</latitude>
          <longitude>-120.78</longitude>
          <elevation>0</elevation>
          <priority>0</priority>
          <wfo>LOX</wfo>
     </station>
     <station>
          <stid>WAZ502</stid>
          <stnnum>475020</stnnum>
          <stnname>East_Slopes_of_the_Srn_Cascades</stnname>
          <state>WA</state>
          <country>US</country>
          <latitude>46.10</latitude>
          <longitude>-120.78</longitude>
          <elevation>0</elevation>
          <priority>0</priority>
          <wfo>PDT</wfo>
     </station>
     <station>
          <stid>CAZ085</stid>
          <stnnum>50850</stnnum>
          <stnname>Modoc_County</stnname>
          <state>CA</state>
          <country>US</country>
          <latitude>41.58</latitude>
          <longitude>-120.74</longitude>
          <elevation>0</elevation>
          <priority>0</priority>
          <wfo>MFR</wfo>
     </station>
     <station>
          <stid>CAZ067</stid>
          <stnnum>50670</stnnum>
          <stnname>Motherlode</stnname>
          <state>CA</state>
          <country>US</country>
          <latitude>38.63</latitude>
          <longitude>-120.71</longitude>
          <elevation>0</elevation>
          <priority>0</priority>
          <wfo>STO</wfo>
     </station>
     <station>
          <stid>CAZ071</stid>
          <stnnum>50710</stnnum>
          <stnname>Lassen-Ern_Plumas-Ern_Sierra_Cnt</stnname>
          <state>CA</state>
          <country>US</country>
          <latitude>40.31</latitude>
          <longitude>-120.66</longitude>
          <elevation>0</elevation>
          <priority>0</priority>
          <wfo>REV</wfo>
     </station>
     <station>
          <stid>WAZ027</stid>
          <stnnum>470270</stnnum>
          <stnname>Yakima_Valley</stnname>
          <state>WA</state>
          <country>US</country>
          <latitude>46.43</latitude>
          <longitude>-120.45</longitude>
          <elevation>0</elevation>
          <priority>0</priority>
          <wfo>PDT</wfo>
     </station>
     <station>
          <stid>CAZ035</stid>
          <stnnum>50350</stnnum>
          <stnname>Santa_Barbara_County_Ctrl_Coast</stnname>
          <state>CA</state>
          <country>US</country>
          <latitude>34.72</latitude>
          <longitude>-120.41</longitude>
          <elevation>0</elevation>
          <priority>0</priority>
          <wfo>LOX</wfo>
     </station>
     <station>
          <stid>CAZ089</stid>
          <stnnum>50890</stnnum>
          <stnname>West-Central_San_Joaquin_Valley</stnname>
          <state>CA</state>
          <country>US</country>
          <latitude>36.62</latitude>
          <longitude>-120.39</longitude>
          <elevation>0</elevation>
          <priority>0</priority>
          <wfo>HNX</wfo>
     </station>
     <station>
          <stid>WAZ026</stid>
          <stnnum>470260</stnnum>
          <stnname>Kittitas_Valley</stnname>
          <state>WA</state>
          <country>US</country>
          <latitude>47.00</latitude>
          <longitude>-120.39</longitude>
          <elevation>0</elevation>
          <priority>0</priority>
          <wfo>PDT</wfo>
     </station>
     <station>
          <stid>WAZ042</stid>
          <stnnum>470420</stnnum>
          <stnname>East_Slopes_Northern_Cascades</stnname>
          <state>WA</state>
          <country>US</country>
          <latitude>48.13</latitude>
          <longitude>-120.38</longitude>
          <elevation>0</elevation>
          <priority>0</priority>
          <wfo>OTX</wfo>
     </station>
     <station>
          <stid>CAZ069</stid>
          <stnnum>50690</stnnum>
          <stnname>West_Slope_Nrn_Sierra_Nevada</stnname>
          <state>CA</state>
          <country>US</country>
          <latitude>38.76</latitude>
          <longitude>-120.37</longitude>
          <elevation>0</elevation>
          <priority>0</priority>
          <wfo>STO</wfo>
     </station>
     <station>
          <stid>CAZ037</stid>
          <stnnum>50370</stnnum>
          <stnname>San_Luis_Obispo_Cnty_Int_Vlys</stnname>
          <state>CA</state>
          <country>US</country>
          <latitude>35.41</latitude>
          <longitude>-120.31</longitude>
          <elevation>0</elevation>
          <priority>0</priority>
          <wfo>LOX</wfo>
     </station>
     <station>
          <stid>ORZ031</stid>
          <stnnum>370310</stnnum>
          <stnname>Central_and_Eastern_Lake_County</stnname>
          <state>OR</state>
          <country>US</country>
          <latitude>42.80</latitude>
          <longitude>-120.24</longitude>
          <elevation>0</elevation>
          <priority>0</priority>
          <wfo>MFR</wfo>
     </station>
     <station>
          <stid>ORZ506</stid>
          <stnnum>375060</stnnum>
          <stnname>Ochoco-John_Day_Highlands</stnname>
          <state>OR</state>
          <country>US</country>
          <latitude>44.34</latitude>
          <longitude>-120.20</longitude>
          <elevation>0</elevation>
          <priority>0</priority>
          <wfo>PDT</wfo>
     </station>
     <station>
          <stid>WAZ041</stid>
          <stnnum>470410</stnnum>
          <stnname>Wenatchee_Area</stnname>
          <state>WA</state>
          <country>US</country>
          <latitude>47.61</latitude>
          <longitude>-120.18</longitude>
          <elevation>0</elevation>
          <priority>0</priority>
          <wfo>OTX</wfo>
     </station>
     <station>
          <stid>CAZ051</stid>
          <stnnum>50510</stnnum>
          <stnname>San_Luis_Obispo_County_Mtns</stnname>
          <state>CA</state>
          <country>US</country>
          <latitude>35.16</latitude>
          <longitude>-120.17</longitude>
          <elevation>0</elevation>
          <priority>0</priority>
          <wfo>LOX</wfo>
     </station>
     <station>
          <stid>CAZ036</stid>
          <stnnum>50360</stnnum>
          <stnname>Santa_Ynez_Valley</stnname>
          <state>CA</state>
          <country>US</country>
          <latitude>34.72</latitude>
          <longitude>-120.14</longitude>
          <elevation>0</elevation>
          <priority>0</priority>
          <wfo>LOX</wfo>
     </station>
     <station>
          <stid>CAZ070</stid>
          <stnnum>50700</stnnum>
          <stnname>Surprise_Valley_California</stnname>
          <state>CA</state>
          <country>US</country>
          <latitude>41.58</latitude>
          <longitude>-120.11</longitude>
          <elevation>0</elevation>
          <priority>0</priority>
          <wfo>REV</wfo>
     </station>
     <station>
          <stid>CAZ090</stid>
          <stnnum>50900</stnnum>
          <stnname>East-Central_San_Joaquin_Valley</stnname>
          <state>CA</state>
          <country>US</country>
          <latitude>37.11</latitude>
          <longitude>-120.11</longitude>
          <elevation>0</elevation>
          <priority>0</priority>
          <wfo>HNX</wfo>
     </station>
     <station>
          <stid>ORZ504</stid>
          <stnnum>375040</stnnum>
          <stnname>Nrn_Wheeler_and_Srn_Gilliam_Cnti</stnname>
          <state>OR</state>
          <country>US</country>
          <latitude>45.01</latitude>
          <longitude>-120.10</longitude>
          <elevation>0</elevation>
          <priority>0</priority>
          <wfo>PDT</wfo>
     </station>
     <station>
          <stid>CAZ072</stid>
          <stnnum>50720</stnnum>
          <stnname>Greater_Lake_Tahoe_Area</stnname>
          <state>CA</state>
          <country>US</country>
          <latitude>38.89</latitude>
          <longitude>-119.96</longitude>
          <elevation>0</elevation>
          <priority>0</priority>
          <wfo>REV</wfo>
     </station>
     <station>
          <stid>CAZ039</stid>
          <stnnum>50390</stnnum>
          <stnname>Santa_Barbara_County_S_Coast</stnname>
          <state>CA</state>
          <country>US</country>
          <latitude>34.45</latitude>
          <longitude>-119.95</longitude>
          <elevation>0</elevation>
          <priority>0</priority>
          <wfo>LOX</wfo>
     </station>
     <station>
          <stid>NVZ002</stid>
          <stnnum>280020</stnnum>
          <stnname>Greater_Lake_Tahoe_Area</stnname>
          <state>NV</state>
          <country>US</country>
          <latitude>39.19</latitude>
          <longitude>-119.90</longitude>
          <elevation>0</elevation>
          <priority>0</priority>
          <wfo>REV</wfo>
     </station>
     <station>
          <stid>CAZ052</stid>
          <stnnum>50520</stnnum>
          <stnname>Santa_Barbara_County_Mountains</stnname>
          <state>CA</state>
          <country>US</country>
          <latitude>34.77</latitude>
          <longitude>-119.88</longitude>
          <elevation>0</elevation>
          <priority>0</priority>
          <wfo>LOX</wfo>
     </station>
     <station>
          <stid>CAZ091</stid>
          <stnnum>50910</stnnum>
          <stnname>Southwestern_San_Joaquin_Valley</stnname>
          <state>CA</state>
          <country>US</country>
          <latitude>35.75</latitude>
          <longitude>-119.78</longitude>
          <elevation>0</elevation>
          <priority>0</priority>
          <wfo>HNX</wfo>
     </station>
     <station>
          <stid>CAZ038</stid>
          <stnnum>50380</stnnum>
          <stnname>Cuyama_Valley</stnname>
          <state>CA</state>
          <country>US</country>
          <latitude>34.96</latitude>
          <longitude>-119.77</longitude>
          <elevation>0</elevation>
          <priority>0</priority>
          <wfo>LOX</wfo>
     </station>
     <station>
          <stid>NVZ005</stid>
          <stnnum>280050</stnnum>
          <stnname>Northern_Washoe_County</stnname>
          <state>NV</state>
          <country>US</country>
          <latitude>41.01</latitude>
          <longitude>-119.65</longitude>
          <elevation>0</elevation>
          <priority>0</priority>
          <wfo>REV</wfo>
     </station>
     <station>
          <stid>ORZ044</stid>
          <stnnum>370440</stnnum>
          <stnname>Lower_Columbia_Basin</stnname>
          <state>OR</state>
          <country>US</country>
          <latitude>45.60</latitude>
          <longitude>-119.65</longitude>
          <elevation>0</elevation>
          <priority>0</priority>
          <wfo>PDT</wfo>
     </station>
     <station>
          <stid>WAZ044</stid>
          <stnnum>470440</stnnum>
          <stnname>Waterville_Plateau</stnname>
          <state>WA</state>
          <country>US</country>
          <latitude>47.68</latitude>
          <longitude>-119.65</longitude>
          <elevation>0</elevation>
          <priority>0</priority>
          <wfo>OTX</wfo>
     </station>
     <station>
          <stid>CAZ093</stid>
          <stnnum>50930</stnnum>
          <stnname>Mariposa_Madera_and_Fresno_Cnty_</stnname>
          <state>CA</state>
          <country>US</country>
          <latitude>37.24</latitude>
          <longitude>-119.64</longitude>
          <elevation>0</elevation>
          <priority>0</priority>
          <wfo>HNX</wfo>
     </station>
     <station>
          <stid>NVZ003</stid>
          <stnnum>280030</stnnum>
          <stnname>Gter_Reno-Carson_Cty-Minden_Area</stnname>
          <state>NV</state>
          <country>US</country>
          <latitude>39.36</latitude>
          <longitude>-119.63</longitude>
          <elevation>0</elevation>
          <priority>0</priority>
          <wfo>REV</wfo>
     </station>
     <station>
          <stid>ORZ505</stid>
          <stnnum>375050</stnnum>
          <stnname>John_Day_Basin</stnname>
          <state>OR</state>
          <country>US</country>
          <latitude>44.63</latitude>
          <longitude>-119.49</longitude>
          <elevation>0</elevation>
          <priority>0</priority>
          <wfo>PDT</wfo>
     </station>
     <station>
          <stid>WAZ034</stid>
          <stnnum>470340</stnnum>
          <stnname>Moses_Lake_Area</stnname>
          <state>WA</state>
          <country>US</country>
          <latitude>47.03</latitude>
          <longitude>-119.48</longitude>
          <elevation>0</elevation>
          <priority>0</priority>
          <wfo>OTX</wfo>
     </station>
     <station>
          <stid>WAZ043</stid>
          <stnnum>470430</stnnum>
          <stnname>Okanogan_Valley</stnname>
          <state>WA</state>
          <country>US</country>
          <latitude>48.47</latitude>
          <longitude>-119.47</longitude>
          <elevation>0</elevation>
          <priority>0</priority>
          <wfo>OTX</wfo>
     </station>
     <station>
          <stid>WAZ028</stid>
          <stnnum>470280</stnnum>
          <stnname>Lower_Columbia_Basin</stnname>
          <state>WA</state>
          <country>US</country>
          <latitude>46.21</latitude>
          <longitude>-119.43</longitude>
          <elevation>0</elevation>
          <priority>0</priority>
          <wfo>PDT</wfo>
     </station>
     <station>
          <stid>CAZ044</stid>
          <stnnum>50440</stnnum>
          <stnname>Ventura_County_Interior_Valleys</stnname>
          <state>CA</state>
          <country>US</country>
          <latitude>34.44</latitude>
          <longitude>-119.25</longitude>
          <elevation>0</elevation>
          <priority>0</priority>
          <wfo>LOX</wfo>
     </station>
     <station>
          <stid>CAZ040</stid>
          <stnnum>50400</stnnum>
          <stnname>Ventura_County_Coast</stnname>
          <state>CA</state>
          <country>US</country>
          <latitude>34.22</latitude>
          <longitude>-119.19</longitude>
          <elevation>0</elevation>
          <priority>0</priority>
          <wfo>LOX</wfo>
     </station>
     <station>
          <stid>CAZ092</stid>
          <stnnum>50920</stnnum>
          <stnname>Southeastern_San_Joaquin_Valley</stnname>
          <state>CA</state>
          <country>US</country>
          <latitude>35.82</latitude>
          <longitude>-119.14</longitude>
          <elevation>0</elevation>
          <priority>0</priority>
          <wfo>HNX</wfo>
     </station>
     <station>
          <stid>CAZ096</stid>
          <stnnum>50960</stnnum>
          <stnname>Sierra_NV_fr_Yosemite_to_Kings_C</stnname>
          <state>CA</state>
          <country>US</country>
          <latitude>37.43</latitude>
          <longitude>-119.12</longitude>
          <elevation>0</elevation>
          <priority>0</priority>
          <wfo>HNX</wfo>
     </station>
     <station>
          <stid>CAZ053</stid>
          <stnnum>50530</stnnum>
          <stnname>Ventura_County_Mountains</stnname>
          <state>CA</state>
          <country>US</country>
          <latitude>34.65</latitude>
          <longitude>-119.10</longitude>
          <elevation>0</elevation>
          <priority>0</priority>
          <wfo>LOX</wfo>
     </station>
     <station>
          <stid>ORZ501</stid>
          <stnnum>375010</stnnum>
          <stnname>Foothills_of_the_Blue_Mountains</stnname>
          <state>OR</state>
          <country>US</country>
          <latitude>45.53</latitude>
          <longitude>-119.07</longitude>
          <elevation>0</elevation>
          <priority>0</priority>
          <wfo>PDT</wfo>
     </station>
     <station>
          <stid>ORZ061</stid>
          <stnnum>370610</stnnum>
          <stnname>Harney_County</stnname>
          <state>OR</state>
          <country>US</country>
          <latitude>43.01</latitude>
          <longitude>-119.06</longitude>
          <elevation>0</elevation>
          <priority>0</priority>
          <wfo>BOI</wfo>
     </station>
     <station>
          <stid>CAZ094</stid>
          <stnnum>50940</stnnum>
          <stnname>Tulare_County_Foothills</stnname>
          <state>CA</state>
          <country>US</country>
          <latitude>36.23</latitude>
          <longitude>-118.96</longitude>
          <elevation>0</elevation>
          <priority>0</priority>
          <wfo>HNX</wfo>
     </station>
     <station>
          <stid>WAZ035</stid>
          <stnnum>470350</stnnum>
          <stnname>Upper_Columbia_Basin</stnname>
          <state>WA</state>
          <country>US</country>
          <latitude>47.41</latitude>
          <longitude>-118.91</longitude>
          <elevation>0</elevation>
          <priority>0</priority>
          <wfo>OTX</wfo>
     </station>
     <station>
          <stid>ORZ503</stid>
          <stnnum>375030</stnnum>
          <stnname>Southern_Blue_Mtns_of_Oregon</stnname>
          <state>OR</state>
          <country>US</country>
          <latitude>45.23</latitude>
          <longitude>-118.88</longitude>
          <elevation>0</elevation>
          <priority>0</priority>
          <wfo>PDT</wfo>
     </station>
     <station>
          <stid>CAZ045</stid>
          <stnnum>50450</stnnum>
          <stnname>Ventura_County_Coastal_Valleys</stnname>
          <state>CA</state>
          <country>US</country>
          <latitude>34.23</latitude>
          <longitude>-118.87</longitude>
          <elevation>0</elevation>
          <priority>0</priority>
          <wfo>LOX</wfo>
     </station>
     <station>
          <stid>WAZ038</stid>
          <stnnum>470380</stnnum>
          <stnname>Okanogan_Highlands</stnname>
          <state>WA</state>
          <country>US</country>
          <latitude>48.42</latitude>
          <longitude>-118.75</longitude>
          <elevation>0</elevation>
          <priority>0</priority>
          <wfo>OTX</wfo>
     </station>
     <station>
          <stid>CAZ073</stid>
          <stnnum>50730</stnnum>
          <stnname>Mono</stnname>
          <state>CA</state>
          <country>US</country>
          <latitude>38.08</latitude>
          <longitude>-118.74</longitude>
          <elevation>0</elevation>
          <priority>0</priority>
          <wfo>REV</wfo>
     </station>
     <station>
          <stid>CAZ095</stid>
          <stnnum>50950</stnnum>
          <stnname>Kern_County_Mountains</stnname>
          <state>CA</state>
          <country>US</country>
          <latitude>35.30</latitude>
          <longitude>-118.71</longitude>
          <elevation>0</elevation>
          <priority>0</priority>
          <wfo>HNX</wfo>
     </station>
     <station>
          <stid>CAZ046</stid>
          <stnnum>50460</stnnum>
          <stnname>Santa_Monica_Mtns_Recnl_Area</stnname>
          <state>CA</state>
          <country>US</country>
          <latitude>34.09</latitude>
          <longitude>-118.58</longitude>
          <elevation>0</elevation>
          <priority>0</priority>
          <wfo>LOX</wfo>
     </station>
     <station>
          <stid>CAZ088</stid>
          <stnnum>50880</stnnum>
          <stnname>Santa_Clarita_Valley</stnname>
          <state>CA</state>
          <country>US</country>
          <latitude>34.46</latitude>
          <longitude>-118.55</longitude>
          <elevation>0</elevation>
          <priority>0</priority>
          <wfo>LOX</wfo>
     </station>
     <station>
          <stid>NVZ001</stid>
          <stnnum>280010</stnnum>
          <stnname>Mineral_and_Srn_Lyon_Counties</stnname>
          <state>NV</state>
          <country>US</country>
          <latitude>38.56</latitude>
          <longitude>-118.55</longitude>
          <elevation>0</elevation>
          <priority>0</priority>
          <wfo>REV</wfo>
     </station>
     <station>
          <stid>NVZ004</stid>
          <stnnum>280040</stnnum>
          <stnname>Wrn_NV_Bsn_and_Rng_including_Pyr</stnname>
          <state>NV</state>
          <country>US</country>
          <latitude>40.01</latitude>
          <longitude>-118.53</longitude>
          <elevation>0</elevation>
          <priority>0</priority>
          <wfo>REV</wfo>
     </station>
     <station>
          <stid>CAZ547</stid>
          <stnnum>55470</stnnum>
          <stnname>Los_Angeles_Cnty_Sn_Fernando_Vly</stnname>
          <state>CA</state>
          <country>US</country>
          <latitude>34.21</latitude>
          <longitude>-118.51</longitude>
          <elevation>0</elevation>
          <priority>0</priority>
          <wfo>LOX</wfo>
     </station>
     <station>
          <stid>CAZ097</stid>
          <stnnum>50970</stnnum>
          <stnname>Tulare_County_Mountains</stnname>
          <state>CA</state>
          <country>US</country>
          <latitude>36.27</latitude>
          <longitude>-118.48</longitude>
          <elevation>0</elevation>
          <priority>0</priority>
          <wfo>HNX</wfo>
     </station>
     <station>
          <stid>CAZ087</stid>
          <stnnum>50870</stnnum>
          <stnname>Catalina_Island</stnname>
          <state>CA</state>
          <country>US</country>
          <latitude>33.39</latitude>
          <longitude>-118.45</longitude>
          <elevation>0</elevation>
          <priority>0</priority>
          <wfo>LOX</wfo>
     </station>
     <station>
          <stid>CAZ054</stid>
          <stnnum>50540</stnnum>
          <stnname>Los_Angeles_Cnty_Mtns_excluding_</stnname>
          <state>CA</state>
          <country>US</country>
          <latitude>34.48</latitude>
          <longitude>-118.26</longitude>
          <elevation>0</elevation>
          <priority>0</priority>
          <wfo>LOX</wfo>
     </station>
     <station>
          <stid>CAZ519</stid>
          <stnnum>55190</stnnum>
          <stnname>Ern_Sierra_Slopes_of_Inyo_Cnty</stnname>
          <state>CA</state>
          <country>US</country>
          <latitude>36.63</latitude>
          <longitude>-118.26</longitude>
          <elevation>0</elevation>
          <priority>0</priority>
          <wfo>VEF</wfo>
     </station>
     <station>
          <stid>CAZ041</stid>
          <stnnum>50410</stnnum>
          <stnname>Los_Angeles_Cnty_Cst_including_D</stnname>
          <state>CA</state>
          <country>US</country>
          <latitude>33.92</latitude>
          <longitude>-118.24</longitude>
          <elevation>0</elevation>
          <priority>0</priority>
          <wfo>LOX</wfo>
     </station>
     <station>
          <stid>CAZ059</stid>
          <stnnum>50590</stnnum>
          <stnname>Antelope_Valley</stnname>
          <state>CA</state>
          <country>US</country>
          <latitude>34.62</latitude>
          <longitude>-118.22</longitude>
          <elevation>0</elevation>
          <priority>0</priority>
          <wfo>LOX</wfo>
     </station>
     <station>
          <stid>ORZ502</stid>
          <stnnum>375020</stnnum>
          <stnname>Northern_Blue_Mtns_of_Oregon</stnname>
          <state>OR</state>
          <country>US</country>
          <latitude>45.65</latitude>
          <longitude>-118.19</longitude>
          <elevation>0</elevation>
          <priority>0</priority>
          <wfo>PDT</wfo>
     </station>
     <station>
          <stid>NVZ030</stid>
          <stnnum>280300</stnnum>
          <stnname>Humboldt_County</stnname>
          <state>NV</state>
          <country>US</country>
          <latitude>41.26</latitude>
          <longitude>-118.16</longitude>
          <elevation>0</elevation>
          <priority>0</priority>
          <wfo>LKN</wfo>
     </station>
     <station>
          <stid>WAZ029</stid>
          <stnnum>470290</stnnum>
          <stnname>Foothills_of_the_Blue_Mountains</stnname>
          <state>WA</state>
          <country>US</country>
          <latitude>46.31</latitude>
          <longitude>-118.16</longitude>
          <elevation>0</elevation>
          <priority>0</priority>
          <wfo>PDT</wfo>
     </station>
     <station>
          <stid>CAZ520</stid>
          <stnnum>55200</stnnum>
          <stnname>Owens_Valley</stnname>
          <state>CA</state>
          <country>US</country>
          <latitude>36.63</latitude>
          <longitude>-118.08</longitude>
          <elevation>0</elevation>
          <priority>0</priority>
          <wfo>VEF</wfo>
     </station>
     <station>
          <stid>CAZ521</stid>
          <stnnum>55210</stnnum>
          <stnname>White_Mountains_of_Inyo_County</stnname>
          <state>CA</state>
          <country>US</country>
          <latitude>36.92</latitude>
          <longitude>-118.00</longitude>
          <elevation>0</elevation>
          <priority>0</priority>
          <wfo>VEF</wfo>
     </station>
     <station>
          <stid>CAZ548</stid>
          <stnnum>55480</stnnum>
          <stnname>Los_Angeles_Cnty_Sn_Gabriel_Vly</stnname>
          <state>CA</state>
          <country>US</country>
          <latitude>34.05</latitude>
          <longitude>-117.96</longitude>
          <elevation>0</elevation>
          <priority>0</priority>
          <wfo>LOX</wfo>
     </station>
     <station>
          <stid>CAZ099</stid>
          <stnnum>50990</stnnum>
          <stnname>Southeastern_Kern_County_Desert</stnname>
          <state>CA</state>
          <country>US</country>
          <latitude>35.15</latitude>
          <longitude>-117.93</longitude>
          <elevation>0</elevation>
          <priority>0</priority>
          <wfo>HNX</wfo>
     </station>
     <station>
          <stid>WAZ030</stid>
          <stnnum>470300</stnnum>
          <stnname>Northwest_Blue_Mountains</stnname>
          <state>WA</state>
          <country>US</country>
          <latitude>46.17</latitude>
          <longitude>-117.87</longitude>
          <elevation>0</elevation>
          <priority>0</priority>
          <wfo>PDT</wfo>
     </station>
     <station>
          <stid>CAZ098</stid>
          <stnnum>50980</stnnum>
          <stnname>Indian_Wells_Valley</stnname>
          <state>CA</state>
          <country>US</country>
          <latitude>35.62</latitude>
          <longitude>-117.82</longitude>
          <elevation>0</elevation>
          <priority>0</priority>
          <wfo>HNX</wfo>
     </station>
     <station>
          <stid>CAZ042</stid>
          <stnnum>50420</stnnum>
          <stnname>Orange_County_Coastal_Areas</stnname>
          <state>CA</state>
          <country>US</country>
          <latitude>33.67</latitude>
          <longitude>-117.79</longitude>
          <elevation>0</elevation>
          <priority>0</priority>
          <wfo>SGX</wfo>
     </station>
     <station>
          <stid>WAZ037</stid>
          <stnnum>470370</stnnum>
          <stnname>Northeast_Mountains</stnname>
          <state>WA</state>
          <country>US</country>
          <latitude>48.36</latitude>
          <longitude>-117.71</longitude>
          <elevation>0</elevation>
          <priority>0</priority>
          <wfo>OTX</wfo>
     </station>
     <station>
          <stid>WAZ036</stid>
          <stnnum>470360</stnnum>
          <stnname>Spokane_Area</stnname>
          <state>WA</state>
          <country>US</country>
          <latitude>47.60</latitude>
          <longitude>-117.70</longitude>
          <elevation>0</elevation>
          <priority>0</priority>
          <wfo>OTX</wfo>
     </station>
     <station>
          <stid>ORZ049</stid>
          <stnnum>370490</stnnum>
          <stnname>Grande_Ronde_Valley</stnname>
          <state>OR</state>
          <country>US</country>
          <latitude>45.39</latitude>
          <longitude>-117.69</longitude>
          <elevation>0</elevation>
          <priority>0</priority>
          <wfo>PDT</wfo>
     </station>
     <station>
          <stid>ORZ062</stid>
          <stnnum>370620</stnnum>
          <stnname>Baker_County</stnname>
          <state>OR</state>
          <country>US</country>
          <latitude>44.66</latitude>
          <longitude>-117.65</longitude>
          <elevation>0</elevation>
          <priority>0</priority>
          <wfo>BOI</wfo>
     </station>
     <station>
          <stid>WAZ033</stid>
          <stnnum>470330</stnnum>
          <stnname>Washington_Palouse</stnname>
          <state>WA</state>
          <country>US</country>
          <latitude>46.89</latitude>
          <longitude>-117.64</longitude>
          <elevation>0</elevation>
          <priority>0</priority>
          <wfo>OTX</wfo>
     </station>
     <station>
          <stid>ORZ063</stid>
          <stnnum>370630</stnnum>
          <stnname>Malheur_County</stnname>
          <state>OR</state>
          <country>US</country>
          <latitude>43.21</latitude>
          <longitude>-117.62</longitude>
          <elevation>0</elevation>
          <priority>0</priority>
          <wfo>BOI</wfo>
     </station>
     <station>
          <stid>CAZ057</stid>
          <stnnum>50570</stnnum>
          <stnname>Santa_Ana_Mtns_and_Foothills</stnname>
          <state>CA</state>
          <country>US</country>
          <latitude>33.63</latitude>
          <longitude>-117.45</longitude>
          <elevation>0</elevation>
          <priority>0</priority>
          <wfo>SGX</wfo>
     </station>
     <station>
          <stid>WAZ031</stid>
          <stnnum>470310</stnnum>
          <stnname>Northeast_Blue_Mountains</stnname>
          <state>WA</state>
          <country>US</country>
          <latitude>46.21</latitude>
          <longitude>-117.37</longitude>
          <elevation>0</elevation>
          <priority>0</priority>
          <wfo>OTX</wfo>
     </station>
     <station>
          <stid>CAZ043</stid>
          <stnnum>50430</stnnum>
          <stnname>San_Diego_County_Coastal_Areas</stnname>
          <state>CA</state>
          <country>US</country>
          <latitude>33.00</latitude>
          <longitude>-117.28</longitude>
          <elevation>0</elevation>
          <priority>0</priority>
          <wfo>SGX</wfo>
     </station>
     <station>
          <stid>CAZ048</stid>
          <stnnum>50480</stnnum>
          <stnname>Sn_Bernardino_and_Rivside_Cnty_V</stnname>
          <state>CA</state>
          <country>US</country>
          <latitude>33.85</latitude>
          <longitude>-117.28</longitude>
          <elevation>0</elevation>
          <priority>0</priority>
          <wfo>SGX</wfo>
     </station>
     <station>
          <stid>ORZ050</stid>
          <stnnum>370500</stnnum>
          <stnname>Wallowa_County</stnname>
          <state>OR</state>
          <country>US</country>
          <latitude>45.54</latitude>
          <longitude>-117.17</longitude>
          <elevation>0</elevation>
          <priority>0</priority>
          <wfo>PDT</wfo>
     </station>
     <station>
          <stid>WAZ032</stid>
          <stnnum>470320</stnnum>
          <stnname>Lwr_Garfield_and_Asotin_Cnties</stnname>
          <state>WA</state>
          <country>US</country>
          <latitude>46.35</latitude>
          <longitude>-117.16</longitude>
          <elevation>0</elevation>
          <priority>0</priority>
          <wfo>OTX</wfo>
     </station>
     <station>
          <stid>NVZ014</stid>
          <stnnum>280140</stnnum>
          <stnname>Esmeralda_and_Ctrl_Nye_County</stnname>
          <state>NV</state>
          <country>US</country>
          <latitude>37.65</latitude>
          <longitude>-117.15</longitude>
          <elevation>0</elevation>
          <priority>0</priority>
          <wfo>VEF</wfo>
     </station>
     <station>
          <stid>CAZ055</stid>
          <stnnum>50550</stnnum>
          <stnname>San_Bernardino_County_Mountains</stnname>
          <state>CA</state>
          <country>US</country>
          <latitude>34.23</latitude>
          <longitude>-117.13</longitude>
          <elevation>0</elevation>
          <priority>0</priority>
          <wfo>SGX</wfo>
     </station>
     <station>
          <stid>ORZ064</stid>
          <stnnum>370640</stnnum>
          <stnname>Oregon_Lower_Treasure_Valley</stnname>
          <state>OR</state>
          <country>US</country>
          <latitude>44.02</latitude>
          <longitude>-117.11</longitude>
          <elevation>0</elevation>
          <priority>0</priority>
          <wfo>BOI</wfo>
     </station>
     <station>
          <stid>CAZ050</stid>
          <stnnum>50500</stnnum>
          <stnname>San_Diego_County_Valleys</stnname>
          <state>CA</state>
          <country>US</country>
          <latitude>33.03</latitude>
          <longitude>-117.06</longitude>
          <elevation>0</elevation>
          <priority>0</priority>
          <wfo>SGX</wfo>
     </station>
     <station>
          <stid>CAZ060</stid>
          <stnnum>50600</stnnum>
          <stnname>Apple_and_Lucerne_Valleys</stnname>
          <state>CA</state>
          <country>US</country>
          <latitude>34.43</latitude>
          <longitude>-117.03</longitude>
          <elevation>0</elevation>
          <priority>0</priority>
          <wfo>SGX</wfo>
     </station>
     <station>
          <stid>CAZ523</stid>
          <stnnum>55230</stnnum>
          <stnname>Western_Mojave_Desert</stnname>
          <state>CA</state>
          <country>US</country>
          <latitude>35.27</latitude>
          <longitude>-116.98</longitude>
          <elevation>0</elevation>
          <priority>0</priority>
          <wfo>VEF</wfo>
     </station>
     <station>
          <stid>IDZ003</stid>
          <stnnum>120030</stnnum>
          <stnname>Idaho_Palouse</stnname>
          <state>ID</state>
          <country>US</country>
          <latitude>46.96</latitude>
          <longitude>-116.96</longitude>
          <elevation>0</elevation>
          <priority>0</priority>
          <wfo>OTX</wfo>
     </station>
     <station>
          <stid>CAZ522</stid>
          <stnnum>55220</stnnum>
          <stnname>Death_Valley_National_Park</stnname>
          <state>CA</state>
          <country>US</country>
          <latitude>36.63</latitude>
          <longitude>-116.85</longitude>
          <elevation>0</elevation>
